,매장명,주소,전화번호,위도,경도
0,역삼아레나빌딩,서울특별시 강남구 언주로 425 (역삼동),1522-3232,37.501087,127.043069
1,논현역사거리,서울특별시 강남구 강남대로 538 (논현동),1522-3232,37.510178,127.022223
2,신사역성일빌딩,서울특별시 강남구 강남대로 584 (논현동),1522-3232,37.514132,127.020563
3,국기원사거리,서울특별시 강남구 테헤란로 125 (역삼동),1522-3232,37.499517,127.031495
4,스탈릿대치R,서울특별시 강남구 남부순환로 2947 (대치동),1522-3232,37.494668,127.062583
5,봉은사역,서울특별시 강남구 봉은사로 619 (삼성동),1522-3232,37.515000,127.063196
6,압구정윤성빌딩,서울특별시 강남구 논현로 834 (신사동),1522-3232,37.5227934,127.0286009
7,코엑스별마당,서울특별시 강남구 영동대로 513 (삼성동),1522-3232,37.510150,127.060275
8,삼성역섬유센터R,서울특별시 강남구 테헤란로 518 (대치동),1522-3232,37.507750,127.060651
9,압구정R,서울특별시 강남구 언주로 861 (신사동),1522-3232,37.5273669,127.033061
10,수서역R,서울특별시 강남구 광평로 281 (수서동),1522-3232,37.488008,127.102650
11,양재강남빌딩R,서울특별시 강남구 남부순환로 2621 (도곡동),1522-3232,37.485192,127.036685
12,선릉동신빌딩R,서울특별시 강남구 테헤란로 409 (삼성동),1522-3232,37.505321,127.050409
13,봉은사로선정릉,서울특별시 강남구 봉은사로 446 (삼성동),1522-3232,37.511293,127.048409
14,강남오거리,서울특별시 강남구 봉은사로2길 39 (역삼동),1522-3232,37.502117,127.026672
15,스타필드코엑스몰R,서울특별시 강남구 영동대로 513 (삼성동) 코엑스 A106호,1522-3232,37.50999,127.061455
16,강남구청정문,서울특별시 강남구 학동로 419 (청담동),1522-3232,37.518181,127.045995
17,도곡공원,서울특별시 강남구 도곡로 205 (역삼동),1522-3232,37.492805,127.041309
18,강남R,서울특별시 강남구 강남대로 390 (역삼동),1522-3232,37.497711,127.028439
19,대치은마사거리,서울특별시 강남구 도곡로 457 (대치동),1522-3232,37.498973,127.060172
20,청담영동대로,서울특별시 강남구 영동대로 720 (청담동),1522-3232,37.522156,127.056449
21,압구정,서울특별시 강남구 압구정로30길 17 (신사동),1522-3232,37.526283,127.029560
22,신사가로수,서울특별시 강남구 가로수길 59 ,1522-3232,37.521933,127.022521
23,청담스타R,서울특별시 강남구 도산대로57길 24 (청담동),1522-3232,37.525216,127.041827
24,강남우성,서울특별시 강남구 강남대로 328 (역삼동),1522-3232,37.492396,127.030910
25,학동사거리,서울특별시 강남구 도산대로 328 (논현동),1522-3232,37.52236449999999,127.03795430000002
26,대치사거리,서울특별시 강남구 삼성로 402 (대치동),1522-3232,37.503331,127.058817
27,포스코사거리,서울특별시 강남구 테헤란로 505 (삼성동) 화진빌딩,1522-3232,37.5075307,127.05742710000004
28,을지병원사거리,"서울특별시 강남구 논현로 752 (논현동,구산빌딩)",1522-3232,37.5191632,127.0286446
29,신사역,서울특별시 강남구 도산대로 108 (논현동) 렉스타워,1522-3232,37.5162021,127.0207428
30,도곡역,서울특별시 강남구 남부순환로 2909 (대치동),1522-3232,37.492167,127.057398
31,서울세관사거리,서울특별시 강남구 언주로 650 (논현동) 한국건설기술인협회,1522-3232,37.514887,127.035653
32,청담사거리,서울특별시 강남구 도산대로 458 (청담동) 리츠타워,1522-3232,37.5236351,127.04686509999999
33,한티역,"서울특별시 강남구 도곡로 408, 디마크빌딩 101호 (대치동)",1522-3232,37.496801,127.055055
34,역삼초교사거리,서울특별시 강남구 역삼로 123 (역삼동),1522-3232,37.4941059,127.03299730000003
35,코엑스몰,서울특별시 강남구 영동대로 513 (삼성동) O103호,1522-3232,37.513715,127.059245
36,가로수길,"서울특별시 강남구 논현로175길 94, 1~2층 (신사동)",1522-3232,37.5231593,127.02162499999997
37,역삼대로,"서울특별시 강남구 테헤란로 211, 한국고등교육재단빌딩 1층 (역삼동)",1522-3232,37.501623,127.039375
38,역삼포스코,"서울특별시 강남구 테헤란로 134, P&amp;S TOWER (역삼동)",1522-3232,37.499721,127.033582
39,강남대로,"서울특별시 강남구 강남대로 456, 한석타워 2층 1-2호 (역삼동)",1522-3232,37.50314,127.025546
40,청담,"서울특별시 강남구 도산대로 532, 인희빌딩 1층 (청담동)",1522-3232,37.5243631,127.05155990000003
41,삼성도심공항,서울특별시 강남구 테헤란로87길 33 (삼성동),1522-3232,37.5097863,127.05791339999996
42,삼성교,"서울특별시 강남구 영동대로86길 12, 동남유화빌딩 1층",1522-3232,37.507794,127.06517
43,학동역,서울특별시 강남구 논현로 704 (논현동),1522-3232,37.51464884,127.0307302
44,대치,서울특별시 강남구 도곡로 511 (대치동),1522-3232,37.49966175,127.0622171
45,SSG마켓도곡R,"서울특별시 강남구 언주로30길 57, 타워팰리스Ⅱ F 지하1층 (도곡동)",1522-3232,37.490298,127.054895
46,삼성,"서울특별시 강남구 테헤란로 443, 애플트리타워 1층 (삼성동)",1522-3232,37.50703529,127.0555503
47,선릉세화빌딩,서울특별시 강남구 테헤란로64길 18 (대치동) 1층,1522-3232,37.50377562,127.051196
48,압구정역,"서울특별시 강남구 압구정로 170, 관영빌딩 1층 지하1층 (신사동)",1522-3232,37.52674095,127.0281105
49,압구정로,서울특별시 강남구 압구정로42길 32 (신사동),1522-3232,37.52680046,127.0347174
50,구역삼사거리,서울특별시 강남구 논현로 401 (역삼동),1522-3232,37.49592355,127.0388645
51,큰길타워,"서울특별시 강남구 테헤란로 223, 큰길타워빌딩 (역삼동)",1522-3232,37.50236693,127.0407
52,강남구청역,"서울특별시 강남구 선릉로 669, 웰빙센터 1층 (논현동)",1522-3232,37.5165849,127.04124330000002
53,대치역,서울특별시 강남구 남부순환로 2936 (대치동) 107호,1522-3232,37.493554,127.061874
54,포이,서울특별시 강남구 논현로 88 (개포동),1522-3232,37.47781106,127.0451411
55,아크플레이스,서울특별시 강남구 테헤란로 142 (역삼동),1522-3232,37.49971982,127.0349084
56,학여울역,서울특별시 강남구 영동대로 215 (대치동),1522-3232,37.49803646,127.0684943
57,선정릉역,서울특별시 강남구 봉은사로 407 (삼성동) 에프오빌딩,1522-3232,37.51075489999999,127.04455970000003
58,삼성현대힐,서울특별시 강남구 삼성로 605 (삼성동),1522-3232,37.51354184,127.0527183
59,GS타워,서울특별시 강남구 논현로 508 (역삼동),1522-3232,37.5018592,127.03727759999992
60,압구정미소,서울특별시 강남구 논현로 841 (신사동),1522-3232,37.52405601,127.027915
61,선릉역,"서울특별시 강남구 테헤란로 334, LG화재 빌딩 (역삼동)",1522-3232,37.50393894,127.0485135
62,코엑스사거리,서울특별시 강남구 영동대로 616 (삼성동),1522-3232,37.515351,127.060109
63,역삼럭키,서울특별시 강남구 도곡로 183 (역삼동),1522-3232,37.492209,127.039389
64,차병원사거리,"서울특별시 강남구 봉은사로 213, 센트럴타워 (논현동)",1522-3232,37.508032,127.035373
65,청담공원,서울특별시 강남구 학동로 506 (삼성동),1522-3232,37.5186549,127.05143870000006
66,신압구정,서울특별시 강남구 언주로174길 29 (신사동),1522-3232,37.528115,127.036441
67,아크로힐스논현,"서울특별시 강남구 봉은사로 304, 금강빌딩 1-2층 (역삼동)",1522-3232,37.50898041,127.0403869
68,뱅뱅사거리,서울특별시 강남구 강남대로 282 (도곡동),1522-3232,37.488585,127.032415
69,강남비젼타워,"서울특별시 강남구 테헤란로2길 27, 1층 101호 (역삼동)",1522-3232,37.4964557,127.02968850000002
70,역삼역,"서울특별시 강남구 테헤란로 145, 우신빌딩 1층 (역삼동)",1522-3232,37.50080096,127.0351577
71,압구정로데오역,"서울특별시 강남구 선릉로 836, 삼원빌딩 1,2층 (청담동)",1522-3232,37.526549,127.040437
72,르네상스사거리,서울특별시 강남구 테헤란로 306 (역삼동),1522-3232,37.502721,127.044308
73,포스코,"서울특별시 강남구 삼성로86길 7, 1층 (대치동)",1522-3232,37.50576,127.057966
74,선릉로,"서울특별시 강남구 선릉로93길 22, 대흥빌딩 1층 (역삼동)",1522-3232,37.505053,127.046577
75,논현힐탑,서울특별시 강남구 논현로 648 (논현동),1522-3232,37.5115577,127.03226199999994
76,도산가로수길,"서울특별시 강남구 도산대로 134, 2층 (논현동)",1522-3232,37.51736229999999,127.02329570000006
77,대치한티,서울특별시 강남구 선릉로 324 (대치동),1522-3232,37.4984818,127.0520660
78,수서역사거리,서울특별시 강남구 광평로 280 (수서동),1522-3232,37.4873267937748,127.103140081887
79,코엑스아셈타워,서울특별시 강남구 영동대로 517 (삼성동),1522-3232,37.513019,127.059838
80,센터필드R,서울특별시 강남구 테헤란로 231 (역삼동),1522-3232,37.50369465391196,127.04172081609172
81,도산사거리,서울특별시 강남구 언주로 727 (논현동),1522-3232,37.51966,127.0341
82,강남세곡,서울특별시 강남구 헌릉로569길 18 (세곡동),1522-3232,37.467274319644,127.099929726
83,대치삼성프라자,서울특별시 강남구 영동대로 237 (대치동),1522-3232,37.500313,127.066961
84,테헤란로아남타워,서울특별시 강남구 테헤란로 311 (역삼동),1522-3232,37.50383,127.04487
85,삼성동,서울특별시 강남구 영동대로96길 12 (삼성동),1522-3232,37.510843366121534,127.06363342044263
86,역삼이마트,서울특별시 강남구 역삼로 310 (역삼동),1522-3232,37.499367,127.048425
87,미아뉴타운,서울특별시 강북구 삼양로 161 (미아동),1522-3232,37.618319,127.021072
88,강북구청사거리,서울특별시 강북구 도봉로 365 (수유동),1522-3232,37.6400354,127.0273766
89,미아사거리역,서울특별시 강북구 도봉로 32 (미아동),1522-3232,37.611809,127.0306971
90,수유역,서울특별시 강북구 도봉로 342 (번동),1522-3232,37.6380167,127.02613500000007
91,미아역,서울특별시 강북구 도봉로 196 (미아동),1522-3232,37.626148,127.026578
92,파라스파라서울,서울특별시 강북구 삼양로 689 (우이동)[*미고시],1522-3232,37.664380074618,127.008566467101
93,발산역사거리,서울특별시 강서구 공항대로 248 (마곡동),1522-3232,37.558509,126.835096
94,마곡역,서울특별시 강서구 공항대로 168 (마곡동),1522-3232,37.559611,126.826298
95,우장산역,서울특별시 강서구 강서로 267 (내발산동),1522-3232,37.549501,126.835984
96,마곡사이언스타워R,서울특별시 강서구 마곡동로 62 (마곡동),1522-3232,37.5605261,126.833887
97,방화DT,서울특별시 강서구 방화대로 375 (방화동),1522-3232,37.574339,126.816415
98,마곡나루역,서울특별시 강서구 마곡중앙로 161-17 (마곡동),1522-3232,37.56813,126.82614
99,마곡GMG,"서울특별시 강서구 마곡중앙6로 16 (마곡동) 117,118,119,120호",1522-3232,37.560487,126.829667
100,가양역,서울특별시 강서구 양천로 476 (등촌동),1522-3232,37.561640,126.853327
101,화곡DT,서울특별시 강서구 등촌로 57 (화곡동),1522-3232,37.535149,126.863232
102,양천향교역,서울특별시 강서구 강서로 463 (마곡동),1522-3232,37.566964,126.840731
103,화곡동,서울특별시 강서구 화곡로 142(화곡동),1522-3232,37.5405115,126.8372413
104,등촌,서울특별시 강서구 공항대로 329 (등촌동),1522-3232,37.5582043,126.84433919999992
105,염창역,서울특별시 강서구 공항대로 627 (염창동),1522-3232,37.547359,126.874436
106,발산역,서울특별시 강서구 강서로 388 (등촌동) 그랜드마트,1522-3232,37.56033,126.839279
107,가양이마트,서울특별시 강서구 양천로 559 (가양동) 1층,1522-3232,37.5578966,126.86229779999996
108,까치산역,서울특별시 강서구 강서로13길 3 (화곡동),1522-3232,37.532303,126.846077
109,등촌대로,"서울특별시 강서구 공항대로 543 (염창동, 센터스퀘어), 104-2/105/106호",1522-3232,37.55101,126.86638
110,가양역사거리,"서울특별시 강서구 화곡로 416 (등촌동) 가양더스카이벨리5차 지식산업센터 101, 102, 114,~117호",1522-3232,37.56007,126.855372
111,강서NC,서울특별시 강서구 강서로56길 17 (등촌동),1522-3232,37.560088,126.840534
112,마곡나루공원,서울특별시 강서구 마곡중앙5로 47 (마곡동),1522-3232,37.567007,126.822246
113,강서구청사거리,"서울특별시 강서구 화곡로 350 (화곡동), 104/105/106/107호",1522-3232,37.5549266,126.8523133
114,낙성대역,서울특별시 관악구 남부순환로 1908 (봉천동),1522-3232,37.477946,126.961193
115,관악서울대입구R,서울특별시 관악구 관악로 158 (봉천동),1522-3232,37.479343,126.952780
116,신림DT,서울특별시 관악구 남부순환로 1419 (신림동),1522-3232,37.480935,126.908407
117,서울대역,서울특별시 관악구 남부순환로 1817 (봉천동),1522-3232,37.481599,126.952200
118,낙성대DT,서울특별시 관악구 남부순환로 1948 (봉천동),1522-3232,37.476169,126.965005
119,사당,서울특별시 관악구 남부순환로 2082-25,1522-3232,37.47601,126.980997
120,보라매대교,서울특별시 관악구 보라매로3길 23 (봉천동) 1층,1522-3232,37.491449,126.925432
121,신림사거리,서울특별시 관악구 남부순환로 1619 (신림동),1522-3232,37.484768,126.930467
122,신림,서울특별시 관악구 신림로 355-1 (신림동),1522-3232,37.48609493,126.9291602
123,신림역포도몰,"서울특별시 관악구 신림로 330, PODO MALL 1층 101 일부 (신림동)",1522-3232,37.48385383,126.9301799
124,서울대입구역,서울특별시 관악구 남부순환로 1812 (봉천동),1522-3232,37.48118,126.951324
125,건국대,서울특별시 광진구 능동로 117 (화양동),1522-3232,37.5415592,127.0711244
126,어린이대공원역,서울특별시 광진구 능동로243 ,1522-3232,37.551946,127.076404
127,아차산역,서울특별시 광진구 천호대로 676 ,1522-3232,37.5505388,127.0898757
128,올림픽대교북단,서울특별시 광진구 광나루로 608 (구의동),1522-3232,37.541129,127.095240
129,구의DT,서울특별시 광진구 광나루로 519 (구의동),1522-3232,37.5451984,127.0871587
130,자양사거리,서울특별시 광진구 아차산로 355,1522-3232,37.5371158,127.0825821
131,군자역,서울특별시 광진구 천호대로 548 (군자동) 중앙빌딩,1522-3232,37.556965,127.079032
132,광나루,"서울특별시 광진구 아차산로 607, 1,2층 (광장동)",1522-3232,37.547442,127.105934
133,건대스타시티,서울특별시 광진구 아차산로 262 (자양동),1522-3232,37.538544,127.073009
134,자양,서울특별시 광진구 능동로 50 (자양동),1522-3232,37.5354769,127.06914619999998
135,강변역,서울특별시 광진구 구의강변로 64 (구의동) 구의아크로리버,1522-3232,37.536155,127.093086
136,건대입구,서울특별시 광진구 능동로 107 (화양동),1522-3232,37.5406604,127.07072249999999
137,구의역,서울특별시 광진구 아차산로 373 (구의동),1522-3232,37.53698,127.084015
138,광장,서울특별시 광진구 아차산로 537-17 (광장동),1522-3232,37.542518,127.099651
139,건국클래식,서울특별시 광진구 능동로 90 (자양동) 더 클래식500,1522-3232,37.538466,127.071271
140,자양이마트,서울시 광진구 아차산로 272 스타시티 지하1층 일부,1522-3232,37.537817,127.072597
141,중곡,서울특별시 광진구 천호대로 549 (중곡동) 1층,1522-3232,37.5575666,127.0793340
142,금천구청역,"서울특별시 금천구 시흥대로73길 67 엠타워 112,113,114,115호",1522-3232,37.455983,126.895727
143,가산에스케이,서울특별시 금천구 가산디지털1로 171 (가산동),1522-3232,37.48061318,126.8805702
144,독산사거리,서울특별시 금천구 시흥대로 426 (독산동),1522-3232,37.471528328745485,126.89856062315228
145,금천시흥,서울특별시 금천구 시흥대로 164 (시흥동),1522-3232,37.448624,126.903183
146,가산디지털단지역,서울특별시 금천구 벚꽃로 298 (가산동),1522-3232,37.481324,126.883779
147,금천독산,서울특별시 금천구 두산로 70 (독산동),1522-3232,37.46914,126.895246
148,가산디지털,서울특별시 금천구 가산디지털1로 168 (가산동),1522-3232,37.4798346,126.88249969999992
149,W-Mall,서울특별시 금천구 디지털로 188 (가산동),1522-3232,37.47730499,126.8876908
150,마리오아울렛,서울특별시 금천구 벚꽃로 266 마리오아울렛3관,1522-3232,37.478701,126.885076
151,가산브이타워,서울특별시 금천구 가산디지털1로 128 (가산동),1522-3232,37.477221,126.883683
152,가산그레이트,"서울특별시 금천구 디지털로9길 32, 갑을그레이트밸리 1층 (가산동)",1522-3232,37.4794491,126.88747680000006
153,월계역,"서울특별시 노원구 초안산로2라길26 월계동(104,105,106호)",1522-3232,37.6295,127.0574
154,월계트레이더스,서울특별시 노원구 마들로3길 15 ,1522-3232,37.6277053,127.06149779999998
155,상계초교사거리,서울특별시 노원구 노원로 449 ,1522-3232,37.656776,127.066442
156,공릉DT,서울특별시 노원구 동일로 1015 (공릉동),1522-3232,37.6206884,127.0743116
157,노원마들역,"서울특별시 노원구 노원로 569 (상계동, 임광아파트)",1522-3232,37.660941,127.058008
158,공릉역,서울특별시 노원구 동일로 1081 (공릉동),1522-3232,37.626337,127.072252
159,은행사거리,"서울특별시 노원구 중계로 217, 중흥빌딩 103,203호 (중계동)",1522-3232,37.65048737,127.0759861
160,노원KT,"서울특별시 노원구 노해로 502, (주)KT 노원사옥 (상계동)",1522-3232,37.654562,127.063617
161,광운대,서울특별시 노원구 석계로 104 (월계동),1522-3232,37.6231479,127.06070090000003
162,중계역,"서울특별시 노원구 동일로 1339, 대한빌딩 (상계동)",1522-3232,37.64817,127.062244
163,노원역,서울특별시 노원구 동일로 1413 (상계동) 1층,1522-3232,37.654751,127.060034
164,월계이마트,서울특별시 노원구 마들로3길 15 (월계동),1522-3232,37.627155,127.062094
165,태릉입구역DT,서울특별시 노원구 화랑로 469 (공릉동),1522-3232,37.61942,127.07932
166,창동이마트,서울특별시 도봉구 노해로65길 4 (창동),1522-3232,37.651645,127.046869
167,쌍문역,서울특별시 도봉구 도봉로 480 (창동),1522-3232,37.648456,127.034783
168,쌍문도봉로,서울특별시 도봉구 도봉로 444 (창동),1522-3232,37.6453516,127.0331011
169,노량진동,"서울특별시 동작구 노량진로 190 (노량진동, 고려교육타워-어바니엘한강) 101호~105호",1522-3232,37.513068,126.946537
170,남성역,서울특별시 동작구 사당로 219 (사당동),1522-3232,37.4841198,126.9725739
171,상도역,서울특별시 동작구 상도로37길 1 (상도1동),1522-3232,37.5031936,126.9484581
172,보라매공원R,"서울특별시 동작구 보라매로5길 35 (신대방동, 파크스퀘어,보라매현대APT)",1522-3232,37.49226212712864,126.92334570798292
173,이수자이,서울특별시 동작구 사당로 300 (사당동 이수자이),1522-3232,37.484414,126.980047
174,노량진역,서울특별시 동작구 노량진로 134 (노량진동),1522-3232,37.513390,126.940879
175,신대방삼거리역,서울특별시 동작구 상도로 102 (상도동),1522-3232,37.499914,126.931766
176,중앙대,서울특별시 동작구 흑석로 75-1 (흑석동),1522-3232,37.506933,126.958125
177,숭실대입구역,서울특별시 동작구 상도로 354 (상도동),1522-3232,37.4968346,126.95271230000003
178,숭실대,서울특별시 동작구 사당로 4 (상도동),1522-3232,37.49538073,126.9548891
179,사당역,"서울특별시 동작구 동작대로 21, 양지빌딩 1-3층 (사당동)",1522-3232,37.47849216,126.9813456
180,서강대프라자,서울특별시 마포구 백범로 35 (신수동),1522-3232,37.551073,126.943096
181,상암YTN,서울특별시 마포구 상암산로 76 (상암동),1522-3232,37.579183,126.892315
182,마포용강동,서울특별시 마포구 토정로 295 (용강동),1522-3232,37.541186,126.942209
183,홍대입구역사거리R,서울특별시 마포구 양화로 125 (서교동),1522-3232,37.554636,126.92036
184,마포경찰서후문,서울특별시 마포구 마포대로 173-14 (아현동),1522-3232,37.550800,126.953432
185,공덕,서울특별시 마포구 마포대로 130 (공덕동),1522-3232,37.545913,126.952956
186,합정폴리스R,"서울특별시 마포구 양화로 45 (서교동, 메세나폴리스)",1522-3232,37.5509,126.9134
187,홍대공항철도역,서울특별시 마포구 양화로 178 (동교동),1522-3232,37.557491,126.925146
188,마포염리,서울특별시 마포구 독막로 311 (염리동),1522-3232,37.543876,126.947680
189,서강광흥창역,서울특별시 마포구 서강로 69 (창전동),1522-3232,37.549377,126.931661
190,합정,"서울특별시 마포구 월드컵로1길 14 (합정동) 마포한강푸르지오 110, 111, 112-2",1522-3232,37.549630,126.912999
191,서강대흥역,서울특별시 마포구 백범로 89-5 (대흥동),1522-3232,37.548178,126.941576
192,서교동사거리,서울특별시 마포구 양화로 105 (서교동),1522-3232,37.553376,126.918564
193,상암사보이시티,서울특별시 마포구 월드컵북로54길 17 (상암동),1522-3232,37.581470,126.888983
194,신촌오거리,서울특별시 마포구 신촌로16길 10 (노고산동),1522-3232,37.555137,126.934694
195,상암디지털큐브,서울특별시 마포구 상암산로 34,1522-3232,37.5763132,126.8892477
196,상수역,서울특별시 마포구 독막로 88 (상수동),1522-3232,37.5474817,126.92321579999998
197,공덕오거리,서울특별시 마포구 마포대로 86 (도화동) 창강빌딩,1522-3232,37.5424641,126.95057730000008
198,서교,서울특별시 마포구 양화로 78 (서교동) 서교빌딩 1층,1522-3232,37.551385,126.9169208
199,서강대,서울특별시 마포구 백범로 23 (신수동),1522-3232,37.5524584,126.9378262
200,상암MBC,서울특별시 마포구 성암로 267 (상암동),1522-3232,37.581297,126.890908
201,홍대역,"서울특별시 마포구 양화로 165, 상진빌딩 1층 (동교동)",1522-3232,37.557175,126.923654
202,동교,"서울특별시 마포구 월드컵북로 22, 영준빌딩 1층 (동교동)",1522-3232,37.556928,126.919819
203,애오개역,"서울특별시 마포구 마포대로 201, 마포트라팰리스II (아현동)",1522-3232,37.55218737,126.9555203
204,상암DMC,"서울특별시 마포구 월드컵북로 375, DMC이안오피스텔1단지 102호,202호 (상암동)",1522-3232,37.577623,126.890684
205,마포일진빌딩,"서울특별시 마포구 마포대로 45, 일진빌딩 1층 (도화동)",1522-3232,37.54043451,126.9463168
206,마포아크로,서울특별시 마포구 마포대로 68 (도화동) 마포아크로타워,1522-3232,37.54145556,126.948819
207,홍대삼거리,서울특별시 마포구 와우산로 64 (상수동),1522-3232,37.550266,126.923179
208,망원역,서울특별시 마포구 월드컵로 74 (서교동),1522-3232,37.555829,126.910637
209,마포이마트,서울특별시 마포구 백범로 212 (신공덕동) 마포이마트,1522-3232,37.542421,126.953341
210,합정메세나몰,"서울특별시 마포구 양화로 45 (서교동, 메세나폴리스)",1522-3232,37.551004,126.913848
211,홍대역8번출구,서울특별시 마포구 양화로 166 (동교동),1522-3232,37.556743503599,126.924166543608
212,가재울뉴타운,서울특별시 서대문구 가재울미래로 2 ,1522-3232,37.5749841,126.9164441
213,남가좌사거리,"서울특별시 서대문구 거북골로 84 (남가좌동, DMC에코자이104동)",1522-3232,37.577386,126.920815
214,신촌역,서울특별시 서대문구 신촌로 73 (창천동),1522-3232,37.556167,126.934673
215,연희동,서울특별시 서대문구 연희로 97 (연희동),1522-3232,37.566702,126.930475
216,아현역,"서울특별시 서대문구 신촌로35길 10 (북아현동, E편한세상신촌 4단지)",1522-3232,37.558421,126.956349
217,홍제역,서울특별시 서대문구 통일로 451 (홍제동),1522-3232,37.588658,126.943864
218,연세백양로,서울특별시 서대문구 연세로 50 (신촌동) 연세대학교,1522-3232,37.562644,126.937529
219,연희DT,서울특별시 서대문구 연희로 144 (연희동),1522-3232,37.5702143,126.9339777
220,경기대,서울특별시 서대문구 충정로 53 (충정로2가),1522-3232,37.56367995,126.9646045
221,신촌,서울특별시 서대문구 연세로 10-1 (창천동),1522-3232,37.55648577,126.9371155
222,이대R,서울특별시 서대문구 이화여대길 34 (대현동),1522-3232,37.55848315,126.9459643
223,연세종합관,"서울특별시 서대문구 연세로 50, 연세세브란스 종합관 (신촌동)",1522-3232,37.56177145,126.9414708
224,이대ECC,서울특별시 서대문구 이화여대길 52 (대현동) 이화여자대학교 B415호,1522-3232,37.561631,126.947350
225,연대,서울특별시 서대문구 연세로 35 (창천동),1522-3232,37.558706,126.936727
226,신촌아트레온,서울특별시 서대문구 신촌로 129 (창천동),1522-3232,37.556505,126.940238
227,충정로역,서울특별시 서대문구 충정로 23,1522-3232,37.56137,126.963219
228,연대동문,서울특별시 서대문구 성산로 565 (대신동),1522-3232,37.566385,126.946273
229,신촌명물거리,"서울특별시 서대문구 명물길 24, 1-5층 (창천동)",1522-3232,37.557796,126.938095
230,충정타워,"서울특별시 서대문구 서소문로 21, 충정타워빌딩 1층 (충정로3가)",1522-3232,37.559869,126.964110
231,현대신촌,서울특별시 서대문구 신촌로 83 (창천동),1522-3232,37.5560830579515,126.935844876509
232,방배로,서울특별시 서초구 방배로 52 (방배동),1522-3232,37.4793434,126.9994968
233,강남교보타워R,서울특별시 서초구 강남대로 465 (서초동),1522-3232,37.503789,127.024075
234,방배다이치빌딩,서울특별시 서초구 방배로 114 (방배동),1522-3232,37.484329,126.995872
235,센트럴F1,서울특별시 서초구 신반포로 176 (반포동),1522-3232,37.505148,127.004395
236,서초역이화빌딩,서울특별시 서초구 반포대로21길 3 (서초동),1522-3232,37.487931,127.009126
237,서초구청,서울특별시 서초구 남부순환로 2557 (서초동),1522-3232,37.484206,127.030103
238,서초우성사거리,서울특별시 서초구 강남대로 343 (서초동),1522-3232,37.493545,127.029430
239,이수역사거리,"서울특별시 서초구 서초대로 3-4 (방배동, 방배디오슈페리움1)",1522-3232,37.485850,126.983027
240,강남대로신사,서울특별시 서초구 강남대로 595 (잠원동),1522-3232,37.514890,127.019469
241,서울고속터미널,서울특별시 서초구 신반포로 194 (반포동),1522-3232,37.504406,127.005648
242,강남대로논현R,서울특별시 서초구 강남대로85길 5 (반포동),1522-3232,37.507413,127.022568
243,방배,서울특별시 서초구 방배로 211,1522-3232,37.491914,126.99049739999998
244,방배카페거리,서울특별시 서초구 방배중앙로 162 (방배동),1522-3232,37.4934767,126.9865297
245,서초법원,서울특별시 서초구 서초대로 274 (서초동),1522-3232,37.492970,127.011875
246,청계산입구역,서울특별시 서초구 청계산로 203 (신원동),1522-3232,37.447323,127.056250
247,사당로데오,서울특별시 서초구 방배천로 5-4(방배동),1522-3232,37.4772752,126.98216049999996
248,파미에파크R,서울특별시 서초구 사평대로 205 (반포동) CENTRALCITY,1522-3232,37.5030521,127.004362
249,교대역,서울특별시 서초구 서초중앙로 138 (서초동) 우림빌딩,1522-3232,37.494207,127.01394
250,양재역,서울특별시 서초구 강남대로 202 (양재동) 모산빌딩,1522-3232,37.4820475,127.0367682
251,논현역,서울특별시 서초구 강남대로 557 (잠원동) 1~2층,1522-3232,37.5111983,127.0205875
252,이수역,서울특별시 서초구 동작대로 112 (방배동),1522-3232,37.4864664,126.98274029999993
253,내방역,서울특별시 서초구 방배로 184 (방배동) 대풍빌딩,1522-3232,37.490004,126.992455
254,서초파라곤,서울특별시 서초구 서초대로74길 29 (서초동) 서초파라곤,1522-3232,37.494941,127.027422
255,서울아트센터,서울특별시 서초구 남부순환로 2395 (서초동) 호경빌딩,1522-3232,37.480866,127.012368
256,서초중앙로,서울특별시 서초구 서초중앙로 225,1522-3232,37.501691,127.01152
257,센트럴시티,서울특별시 서초구 신반포로 176 (반포동),1522-3232,37.504707,127.004459
258,강남삼성타운,서울특별시 서초구 서초대로78길 24 (서초동),1522-3232,37.49562035,127.0277144
259,방배역,서울특별시 서초구 방배로 84 (방배동),1522-3232,37.48200755,126.9976438
260,반포역,서울특별시 서초구 신반포로 257 (잠원동) 신반포11차상가,1522-3232,37.508589,127.011959
261,남부터미널,"서울특별시 서초구 서초중앙로 26, 래미안서초유니빌 1층 101호 (서초동)",1522-3232,37.48467334,127.0169464
262,뉴코아강남,서울특별시 서초구 잠원로 69 (잠원동) 킴스클럽,1522-3232,37.51031339,127.0069582
263,강남2,"서울특별시 서초구 서초대로77길 27, 유빌딩 1,2층 (서초동)",1522-3232,37.5000875,127.02549090000002
264,교대,서울특별시 서초구 서초중앙로 118 (서초동),1522-3232,37.4923611,127.0142207
265,하이브랜드,"서울특별시 서초구 매헌로 16, 리빙관 101호 (양재동)",1522-3232,37.46330766,127.0368447
266,신논현역,서울특별시 서초구 강남대로 483 (반포동) 청호빌딩,1522-3232,37.50529,127.023636
267,영동2교,"서울특별시 서초구 논현로 139, 대흥빌딩 (양재동)",1522-3232,37.48203954,127.0425748
268,남부터미널2,서울특별시 서초구 효령로 274 (서초동),1522-3232,37.48436736,127.0142192
269,서래마을입구,서울특별시 서초구 서래로 48 (반포동),1522-3232,37.49925284,126.9984801
270,몬테소리,서울특별시 서초구 강남대로 399 (서초동),1522-3232,37.4982695,127.026865
271,서초역,서울특별시 서초구 반포대로 118 (서초동),1522-3232,37.49067495,127.0086118
272,예술의전당,"서울특별시 서초구 남부순환로323길 1, 1층 (서초동)",1522-3232,37.48115265,127.0134724
273,교대법원,서울특별시 서초구 서초중앙로 164 (서초동),1522-3232,37.496329,127.013336
274,강남GT타워,"서울특별시 서초구 서초대로 411, GT타워 (서초동)",1522-3232,37.498056,127.02583300000003
275,서초동,"서울특별시 서초구 남부순환로339길 64, 현우빌딩 1층 (서초동)",1522-3232,37.485941,127.021525
276,서울교대,"서울특별시 서초구 서초중앙로 64, 1층 (서초동)",1522-3232,37.487397,127.015134
277,강남에비뉴,"서울특별시 서초구 서초대로77길 62, 강남역아이파크 B102~B105 (서초동)",1522-3232,37.5027,127.023894
278,서이초교사거리,서울특별시 서초구 사임당로 143 (서초동),1522-3232,37.4918146,127.0252252
279,서울웨이브아트센터,서울특별시 서초구 잠원로 145-35 (잠원동),1522-3232,37.518807,127.007040
280,길음역,서울특별시 성북구 정릉로 376 (돈암동),1522-3232,37.602139,127.025271
281,미아이마트,서울특별시 성북구 도봉로 17 ,1522-3232,37.610678,127.029921
282,종암DT,서울특별시 성북구 종암로 17 (종암동),1522-3232,37.5919525,127.0360401
283,미아,서울특별시 성북구 동소문로 314 (하월곡동),1522-3232,37.607581,127.029303
284,성신여대정문,서울특별시 성북구 보문로34길 62 (동선동2가),1522-3232,37.590910,127.018800
285,종암,서울특별시 성북구 종암로 122 (종암동),1522-3232,37.601095,127.033847
286,삼선교,서울특별시 성북구 동소문로 10 (동소문동2가),1522-3232,37.588696,127.00732070000003
287,월곡역,"서울특별시 성북구 화랑로 76, 101-1호 (하월곡동)",1522-3232,37.601718,127.040446
288,고대,서울특별시 성북구 고려대로24길 51 (안암동5가),1522-3232,37.58397192,127.0297352
289,현대미아,서울특별시 성북구 동소문로 315 (길음동) 지하1층,1522-3232,37.60837822,127.0287483
290,성신여대,서울특별시 성북구 동소문로24길 12 (동선동1가),1522-3232,37.593135,127.018379
291,안암역,서울특별시 성북구 고려대로 102-2 (안암동5가),1522-3232,37.586319,127.030556
292,한성대입구역,서울특별시 성북구 성북로 11 (성북동1가),1522-3232,37.589054,127.004839
293,장위뉴타운,서울특별시 성북구 장월로38길 4 (장위동),1522-3232,37.6179568965998,127.051535709778
294,송파나루역DT,서울특별시 송파구 오금로 142 (송파동),1522-3232,37.510793,127.1102658
295,송파헬리오시티,"서울특별시 송파구 송파대로 345 (가락동, 헬리오시티)",1522-3232,37.4978563,127.1031325
296,잠실시그마타워,서울특별시 송파구 올림픽로 289 (신천동),1522-3232,37.514567,127.102493
297,문정법원로R,서울특별시 송파구 송파대로 201 (문정동),1522-3232,37.487447,127.119164
298,송파개롱역,서울특별시 송파구 오금로 420 (가락동),1522-3232,37.496956,127.13652
299,문정하비오,"서울특별시 송파구 송파대로 111 (문정동, 파크하비오) 204동 104호~107호",1522-3232,37.481925,127.123446
300,문정역,"서울특별시 송파구 송파대로 167 (문정동)테라타워 B동 137호~139호,204호",1522-3232,37.484813,127.122237
301,잠실대교남단R,서울특별시 송파구 송파대로 570 타워 730 1층,1522-3232,37.515511,127.099006
302,송파위례,"서울특별시 송파구 위례광장로 230 (장지동, 위례2차아이파크)",1522-3232,37.478264,127.144067
303,송파방이DT,서울특별시 송파구 오금로 241 (방이동),1522-3232,37.506564,127.120495
304,송파구청,서울특별시 송파구 오금로 87 (방이동),1522-3232,37.514573,127.107404
305,올림픽평화의문,서울특별시 송파구 위례성대로 38 (방이동) 해태그린피아빌라트,1522-3232,37.5156426,127.11648190000005
306,송파아이파크,서울특별시 송파구 법원로 55 (문정동),1522-3232,37.479892,127.122379
307,송파사거리,서울특별시 송파구 송파대로 386 (송파동),1522-3232,37.5022788,127.1103904
308,석촌서호,서울특별시 송파구 석촌호수로 176 (삼전동),1522-3232,37.5063929,127.0964684
309,문정로데오,서울특별시 송파구 동남로 141 (가락동),1522-3232,37.491905,127.1262696
310,올림픽훼미리,서울특별시 송파구 중대로 68 (문정동),1522-3232,37.491626,127.116308
311,올림픽공원남문,서울특별시 송파구 위례성대로 102 (방이동),1522-3232,37.5133,127.123113
312,방이역,"서울특별시 송파구 마천로 53, 1~2층 (오금동)",1522-3232,37.508666,127.126569
313,석촌호수,서울특별시 송파구 석촌호수로 262 (송파동),1522-3232,37.509581,127.104993
314,잠실푸르지오월드,"서울특별시 송파구 올림픽로35가길 9, 잠실푸르지오월드마크 1층 (신천동)",1522-3232,37.517649,127.103426
315,잠실새내역,서울특별시 송파구 올림픽로 96 (잠실동),1522-3232,37.511679,127.081062
316,잠실역,"서울특별시 송파구 송파대로 562 (신천동, 웰리스타워,삼성웰리스아파트) 1층,2층",1522-3232,37.515272,127.099231
317,갤러리아팰리스,"서울특별시 송파구 올림픽로 212, 갤러리아 팰리스 (잠실동)",1522-3232,37.51108365,127.0938059
318,아시아선수촌,서울특별시 송파구 백제고분로 69 (잠실동),1522-3232,37.510590,127.079047
319,올림픽아파트,서울특별시 송파구 양재대로 1222 (방이동),1522-3232,37.515315,127.133237
320,가락본동,서울특별시 송파구 송파대로30길 13 (가락동),1522-3232,37.494895,127.118785
321,석촌역,"서울특별시 송파구 백제고분로 358, 1층 (석촌동)",1522-3232,37.5042626,127.10610769999994
322,가락시장역,"서울특별시 송파구 중대로 121, 롯데캐슬 파인힐 1층 (가락동)",1522-3232,37.494299,127.121354
323,가든파이브,서울특별시 송파구 충민로 10 (문정동) 가든파이브툴,1522-3232,37.4782316,127.11937030000001
324,송파NC,서울특별시 송파구 충민로 66 (문정동)  가든파이브라이프 패션관1층,1522-3232,37.4778761,127.12567478
325,몽촌토성역,서울특별시 송파구 위례성대로 6 ,1522-3232,37.516913,127.113127
326,송파KT,"서울특별시 송파구 잠실로 209 (신천동), 오피스빌딩 1층 2~4호",1522-3232,37.5139991,127.1063026
327,송파마천사거리DT,서울특별시 송파구 거마로 78 (마천동),1522-3232,37.499829,127.147672
328,목동파리공원,서울특별시 양천구 목동동로 377 (목동),1522-3232,37.535336,126.878852
329,등촌역,서울특별시 양천구 공항대로 566 (목동) 1층 2층,1522-3232,37.548884,126.868070
330,목동행복한,서울특별시 양천구 목동동로 309 (목동),1522-3232,37.529147,126.876099
331,신정DT,서울특별시 양천구 신월로 341 (신정동),1522-3232,37.521993,126.858865
332,목동역,서울특별시 양천구 목동로 203 (신정동) 1층일부,1522-3232,37.526684,126.863986
333,목동오목로,"서울특별시 양천구 오목로 279 (목동) 102,103,104,105호",1522-3232,37.525923,126.868438
334,목동8단지,서울특별시 양천구 목동서로 299 (신정동),1522-3232,37.520518,126.868841
335,오목교역,서울특별시 양천구 오목로 354 (목동),1522-3232,37.5235882,126.87652120000007
336,신월IC DT,서울특별시 양천구 남부순환로 430 (신월동),1522-3232,37.5294984,126.831983
337,목동7단지,서울특별시 양천구 목동서로 213 (목동) 세신비젼프라자,1522-3232,37.528012,126.87053
338,목동5단지,"서울특별시 양천구 목동동로 411, 1동 116호(목동, 부영그린타운3차)",1522-3232,37.536706,126.88212
339,목동,서울특별시 양천구 목동서로 67 (목동) 우성에펠타운,1522-3232,37.53638383,126.8785597
340,현대목동,"서울특별시 양천구 목동동로 257 (목동, 현대하이페리온) 지하2층",1522-3232,37.526848,126.875023
341,목동파라곤,"서울특별시 양천구 목동서로 155, 목동파라곤 1층 (목동)",1522-3232,37.52947,126.874996
342,목동트라팰리스,서울특별시 양천구 오목로 299 (목동),1522-3232,37.5255,126.8702
343,목동10단지,"서울특별시 양천구 목동서로 401 (신정동, 대림아크로빌), 상가A동 101,101-1호",1522-3232,37.515425616177,126.859603067999
344,신월동DT,서울특별시 양천구 남부순환로 319 (신월동),1522-3232,37.5382923530559,126.827101409243
345,타임스퀘어R,서울특별시 영등포구 영중로 15 지하 1층 (영등포동4가),1522-3232,37.51755,126.90516
346,샛강역,서울특별시 영등포구 여의대방로 376 (여의도동),1522-3232,37.5183551,126.9312716
347,영등포역,서울특별시 영등포구 경인로 870 (영등포동1가),1522-3232,37.5169614,126.9091390
348,당산대로,서울특별시 영등포구 양평로 22 (당산동6가),1522-3232,37.533121,126.903804
349,여의도IFC몰(L1)R,서울특별시 영등포구 국제금융로 10 (여의도동)  지하1층 178호,1522-3232,37.525127,126.925508
350,여의도KBS R,서울특별시 영등포구 의사당대로 26 (여의도동),1522-3232,37.526596,126.918456
351,여의도화재보험,서울특별시 영등포구 국제금융로6길 38 (여의도동),1522-3232,37.521345,126.926004
352,국회대로,서울특별시 영등포구 국회대로 786 (여의도동),1522-3232,37.530260,126.919549
353,영등포KT,서울특별시 영등포구 영중로 119 (영등포동8가),1522-3232,37.526419,126.905314
354,여의도공원R,서울특별시 영등포구 여의공원로 101 (여의도동),1522-3232,37.529231,126.924872
355,국회의사당역,서울특별시 영등포구 의사당대로 8 (여의도동),1522-3232,37.527831,126.916882
356,선유도역,서울특별시 영등포구 양평로 115 (양평동4가),1522-3232,37.537268,126.894594
357,여의도역R,서울특별시 영등포구 의사당대로 83 (여의도동) 1층,1522-3232,37.523328,126.923439
358,선유동이레빌딩,서울특별시 영등포구 선유동2로 57 (양평제1동) 이레빌딩,1522-3232,37.534109,126.896912
359,동여의도,서울특별시 영등포구 국제금융로 86 (여의도동) 롯데캐슬 아이비,1522-3232,37.5199494,126.9317957
360,여의도ABL타워,서울특별시 영등포구 의사당대로 147 (여의도동) 알리안츠타워,1522-3232,37.518749,126.92779
361,영등포신길,"서울특별시 영등포구 신길로 137 (신길동) 1,2층",1522-3232,37.504566,126.910073
362,문래역,서울특별시 영등포구 당산로 34 (문래동3가),1522-3232,37.517446,126.895258
363,당산,서울특별시 영등포구 양평로 64 (당산동6가),1522-3232,37.535164,126.899942
364,여의도한양증권,서울특별시 영등포구 국제금융로6길 7 (여의도동) 한양증권,1522-3232,37.522418,126.929093
365,여의도일신,서울특별시 영등포구 은행로 11 (여의도동) 1층 1부,1522-3232,37.528,126.920103
366,신세계타임스퀘어B2,"서울특별시 영등포구 영중로 9, 신세계타임스퀘어점 리빙관 지하2층 (영등포동4가)",1522-3232,37.517162,126.905608
367,하이테크시티,서울특별시 영등포구 경인로 775 (문래동3가) 에이스하이테크시티,1522-3232,37.51467062,126.8986474
368,여의도,서울특별시 영등포구 국제금융로2길 28 (여의도동),1522-3232,37.52403519,126.9245179
369,롯데캐슬여의도,"서울특별시 영등포구 의사당대로 127 (여의도동, 롯데캐슬엠파이어) 1층 104호",1522-3232,37.52025214,126.9263678
370,문래동,"서울특별시 영등포구 선유로 64, 대창타운빌 1층 (문래동3가)",1522-3232,37.519602,126.889652
371,신세계타임스퀘어1F,"서울특별시 영등포구 영중로 9, 신세계백화점 리빙관 1층 (영등포동4가)",1522-3232,37.517162,126.905608
372,여의도호성,"서울특별시 영등포구 여의대방로65길 24, 호성빌딩 1층 (여의도동)",1522-3232,37.520176,126.929426
373,타임스퀘어B2,"서울특별시 영등포구 영중로 15, 지하2층 (영등포동4가)",1522-3232,37.516985,126.903387
374,영등포본동,서울특별시 영등포구 영등포로 254 (영등포동3가),1522-3232,37.518713,126.909559
375,타임스퀘어2F,서울특별시 영등포구 영중로 15 지상2층 (영등포동4가),1522-3232,37.516985,126.903387
376,여의도의사당,"서울특별시 영등포구 국회대로74길 12, 남중빌딩 1층 (여의도동)",1522-3232,37.530023,126.92109
377,여의도IFC(1F),서울특별시 영등포구 국제금융로 10 (여의도동),1522-3232,37.525273,126.924668
378,선유도역 1번출구,서울특별시 영등포구 양평로 128 (양평동5가)양평로 128,1522-3232,37.538333,126.893612
379,영등포구청역,서울특별시 영등포구 국회대로 558 ,1522-3232,37.527623,126.895859
380,서울양평역,"서울특별시 영등포구 선유서로24길 6 (양평동1가, 영등포 중흥 S-CLASS)",1522-3232,37.523128,126.885809
381,영등포시장교차로,서울특별시 영등포구 영중로 45 (영등포동6가),1522-3232,37.5204239,126.9044460
382,더현대서울(B2)R,서울특별시 영등포구 여의대로 108 (여의도동),1522-3232,37.52640,126.92877
383,당산역사거리,서울특별시 영등포구 양평로 47 (당산동5가),1522-3232,37.533984,126.901156
384,불광역,서울특별시 은평구 통일로 715 ,1522-3232,37.6093820,126.9303971
385,구파발사거리,서울특별시 은평구 진관3로 21 은평엘크루 101동 105-108호,1522-3232,37.639617,126.91881
386,연신내역사거리,서울특별시 은평구 통일로 842 (불광동),1522-3232,37.618620,126.922062
387,연신내,서울특별시 은평구 통일로 867 (갈현동),1522-3232,37.620417,126.919913
388,구파발역,서울특별시 은평구 진관2로 12,1522-3232,37.63446,126.918881
389,은평구청입구,서울특별시 은평구 은평로 170 (응암동),1522-3232,37.601042,126.926789
390,은평이마트,서울특별시 은평구 은평로 111 (응암동),1522-3232,37.60037923,126.9202735
391,구산역,서울특별시 은평구 연서로 146 (대조동),1522-3232,37.611745,126.917678
392,연합뉴스,서울특별시 종로구 율곡로2길 25 (수송동),1522-3232,37.5743289,126.9804590000005
393,혜화역,서울특별시 종로구 대학로12길 4 1~2층,1522-3232,37.5824779,127.0021850
394,경희궁로,서울특별시 종로구 새문안로3길 15 (당주동),1522-3232,37.571759,126.972343
395,강북삼성병원,서울특별시 종로구 새문안로 29 (평동),1522-3232,37.568546,126.967560
396,종로평창동,서울특별시 종로구 평창12길 3 (평창동),1522-3232,37.606149,126.967213
397,광화문우체국,서울특별시 종로구 종로 6 (서린동),1522-3232,37.569854,126.978083
398,더종로R,서울특별시 종로구 종로 51 (종로2가),1522-3232,37.570804,126.983494
399,독립문역,서울특별시 종로구 송월길 155 경희궁자이 4단지 1층 팰리스애비뉴 4114~4119호,1522-3232,37.571432,126.961269
400,정부서울청사R,서울특별시 종로구 새문안로5가길 28 (적선동),1522-3232,37.574411,126.973571
401,동묘앞역,"서울특별시 종로구 종로 344 (숭인동, 대우디오빌) 101호 일부, 201호 일부",1522-3232,37.572700,127.016072
402,종로구청,서울특별시 종로구 삼봉로 71 (수송동),1522-3232,37.572662,126.981138
403,북촌로,서울특별시 종로구 북촌로4길 23 (계동),1522-3232,37.579462,126.986431
404,종로수송,서울특별시 종로구 종로5길 30 (청진동) 1~3층,1522-3232,37.5714931,126.9807831
405,새문안로,서울특별시 종로구 새문안로 92 (신문로1가) 광화문오피시아빌딩,1522-3232,37.5696597,126.9748903
406,안국,서울특별시 종로구 북촌로 5-1 (재동),1522-3232,37.577338,126.985635
407,삼청동,서울특별시 종로구 삼청로 111-1 (삼청동),1522-3232,37.585381,126.9817512
408,광화문D타워,서울특별시 종로구 종로3길 17 (청진동) D타워,1522-3232,37.5714,126.9788297
409,적선,"서울특별시 종로구 새문안로5길 55, 노스게이트빌딩 1층 (적선동)",1522-3232,37.57520431,126.9739361
410,인사,서울특별시 종로구 인사동길 14 (인사동),1522-3232,37.5721293,126.98703490000002
411,영풍문고,서울특별시 종로구 청계천로 41 (서린동) 영풍빌딩,1522-3232,37.5695584,126.9821243
412,광화문R,서울특별시 종로구 세종대로 167 (세종로),1522-3232,37.5712293,126.9762872
413,성대입구,서울특별시 종로구 창경궁로 235 (명륜3가),1522-3232,37.582892,126.998392
414,스페이스본,서울특별시 종로구 사직로8길 4 (사직동) 광화문 풍림스페이스본,1522-3232,37.57532212,126.9692494
415,주얼리시티,서울특별시 종로구 종로 183 (인의동) 효성주얼리시티,1522-3232,37.57154914,126.998705
416,종각,서울특별시 종로구 종로 64 (종로2가),1522-3232,37.5699183,126.98452810000003
417,동숭로아트,서울특별시 종로구 동숭길 110 (동숭동),1522-3232,37.582969,127.003876
418,종로관철,"서울특별시 종로구 종로12길 21, 2층 (관철동)",1522-3232,37.569058,126.986013
419,경복궁역,"서울특별시 종로구 자하문로4길 6, 1층 (통의동)",1522-3232,37.5771508,126.97274530000004
420,이마빌딩,서울특별시 종로구 종로1길 42 (수송동),1522-3232,37.5738637,126.97897149999994
421,마로니에공원,"서울특별시 종로구 대학로 116, 1-2층 (동숭동)",1522-3232,37.58154296,127.0023412
422,종로3가,"서울특별시 종로구 종로 113-1, 1-4층 (종로3가)",1522-3232,37.5705527,126.9902055
423,대학로,"서울특별시 종로구 대학로 57, 홍익대학교 대학로캠퍼스 內 (연건동)",1522-3232,37.576509,127.001449
424,경복궁사거리,"서울특별시 종로구 율곡로 6, B동 101호(중학동, 트윈트리타워)",1522-3232,37.575578,126.980581
425,종로관수,서울특별시 종로구 삼일대로20길 13 (관수동),1522-3232,37.569385,126.988665
426,정동,서울특별시 종로구 새문안로 42 (신문로2가),1522-3232,37.568578,126.970067
427,종로플레이스,서울특별시 종로구 창경궁로 120 (인의동),1522-3232,37.57319,126.998309
428,강북삼성병원1층,서울특별시 종로구 새문안로 29 (평동),1522-3232,37.568546,126.96756
429,동숭길입구,서울특별시 종로구 대학로 146 (혜화동),1522-3232,37.584236,127.002014
430,서울대치과병원,서울특별시 종로구 대학로 101 서울대학교 치과병원 신관1층,1522-3232,37.57790,126.99965
431,서대문역,서울특별시 종로구 통일로 134 (평동),1522-3232,37.56670,126.96629
432,숭례문북창,서울특별시 중구 세종대로12길 12 (남대문로4가),1522-3232,37.561725,126.976838
433,을지로4가역,서울특별시 중구 을지로 170 (을지로4가),1522-3232,37.566682,126.997285
434,동대문두타,서울특별시 중구 장충단로 275 (을지로6가),1522-3232,37.56892512604548,127.00878383484597
435,대한상공회의소R,서울특별시 중구 세종대로 39 상공회의소회관 1층,1522-3232,37.560938,126.973702
436,명동센트럴,서울특별시 중구 명동9길 16 (명동1가),1522-3232,37.564669,126.985233
437,국립중앙의료원,서울특별시 중구 을지로 251 (을지로6가),1522-3232,37.5665160,127.0062376
438,동국대,서울특별시 중구 서애로 1길 11,1522-3232,37.561542,126.998437
439,신세계본점5F,서울특별시 중구 소공로 63 (충무로1가),1522-3232,37.560951,126.981134
440,을지로내외빌딩R,서울특별시 중구 을지로 51 (을지로2가),1522-3232,37.566479,126.983663
441,대우재단빌딩,서울특별시 중구 퇴계로 18 (남대문로5가),1522-3232,37.556781,126.975081
442,동대문공원,서울특별시 중구 장충단로 229 (광희동1가),1522-3232,37.565133,127.007191
443,을지로국제빌딩,서울특별시 중구 남대문로 109 (다동),1522-3232,37.566952,126.982219
444,동대입구역,서울특별시 중구 장충단로 166 (장충동1가),1522-3232,37.559593,127.006142
445,신당역사거리,서울특별시 중구 다산로 258 (흥인동),1522-3232,37.565807,127.016430
446,연세세브란스,서울특별시 중구 통일로 10 (남대문로5가),1522-3232,37.557207,126.973540
447,회현역,서울특별시 중구 퇴계로 72 (회현동) 리더스뷰남산,1522-3232,37.5589809,126.98074670000005
448,을지로경기빌딩,서울특별시 중구 남대문로10길 9 (삼각동) 경기빌딩,1522-3232,37.567172,126.983156
449,을지로2가,서울특별시 중구 삼일대로 358 (을지로2가),1522-3232,37.566347,126.988066
450,신세계본점6F,서울특별시 중구 퇴계로 77 (충무로1가),1522-3232,37.560381,126.980758
451,서울중앙우체국,서울특별시 중구 소공로 70 (충무로 1가) 서울 중앙 우체국,1522-3232,37.561678,126.982117
452,한국프레스센터,서울특별시 중구 세종대로 124 (태평로1가),1522-3232,37.567381,126.977859
453,명동중앙로,서울특별시 중구 명동길 60 (명동 2가),1522-3232,37.5637485,126.9857723
454,약수역,서울특별시 중구 다산로 129 (신당동),1522-3232,37.555437,127.0107253
455,중구저동,서울특별시 중구 수표로 34 (저동2가),1522-3232,37.5643686,126.9903382
456,명동길,서울특별시 중구 명동10길 41,1522-3232,37.5620695,126.9858669
457,소공로북창,서울특별시 중구 세종대로18길 32 (소공동) 삼원빌딩,1522-3232,37.5636856,126.9789237
458,서소문로,서울특별시 중구 서소문로 120 (서소문동) 대한빌딩,1522-3232,37.563006,126.974546
459,신당역,"서울특별시 중구 퇴계로 385, 1층 (흥인동)",1522-3232,37.565522,127.014554
460,명동메트로,서울특별시 중구 명동9가길 14 (을지로1가) 메트로호텔,1522-3232,37.565118,126.983681
461,숭례문,"서울특별시 중구 세종대로 17, 와이즈타워 1층 (남대문로5가)",1522-3232,37.55874473,126.9730952
462,순화동더샵,"서울특별시 중구 칠패로 27, 1층 (순화동)",1522-3232,37.560072,126.971931
463,대한극장,"서울특별시 중구 퇴계로 212 (필동2가) 1,2층",1522-3232,37.56105065,126.9952735
464,환구단,서울특별시 중구 소공로 112 (소공동),1522-3232,37.564448,126.979157
465,무교동,서울특별시 중구 무교로 21 (무교동) 코오롱빌딩 1층,1522-3232,37.56781712,126.978738
466,문화일보,서울특별시 중구 새문안로 22 (충정로1가) 문화일보,1522-3232,37.56712291,126.9686642
467,태평로,"서울특별시 중구 세종대로 72, 대영빌딩 1층 (태평로2가)",1522-3232,37.56248285,126.9767928
468,퍼시픽타워,"서울특별시 중구 세종대로9길 41, 퍼시픽타워 1층 (서소문동)",1522-3232,37.56132157,126.9730264
469,남산단암,"서울특별시 중구 소월로 10, 단암빌딩 (남대문로5가)",1522-3232,37.55853622,126.9754585
470,황학캐슬,서울특별시 중구 청계천로 400 (황학동) 롯데캐슬베네치아,1522-3232,37.57124,127.022905
471,서소문,서울특별시 중구 서소문로 130 (서소문동),1522-3232,37.5633773,126.97551290000001
472,을지로삼화타워,서울특별시 중구 을지로5길 16 (을지로2가) 1층,1522-3232,37.566902,126.984707
473,소공로,"서울특별시 중구 남대문로7길 19, 삼영빌딩 1층 일부 (소공동)",1522-3232,37.5637273,126.98076809999998
474,서소문배재,서울특별시 중구 서소문로 99 (서소문동),1522-3232,37.5628481,126.97216639999999
475,을지로한국빌딩,"서울특별시 중구 을지로 50, 1층 (을지로 2가)",1522-3232,37.565722,126.98329
476,KG타워,서울특별시 중구 통일로 92 (순화동) KG타워,1522-3232,37.563528,126.969144
477,시청,"서울특별시 중구 을지로 19, 삼성화재삼성빌딩 1층 (을지로1가)",1522-3232,37.566290,126.979808
478,시청플러스,"서울특별시 중구 을지로 19, 삼성화재삼성빌딩 1층 (을지로1가)",1522-3232,37.566338,126.980055
479,충무로역,"서울특별시 중구 퇴계로 197, 충무빌딩 1층 (필동 2가)",1522-3232,37.561499,126.993864
480,명동역,"서울특별시 중구 퇴계로 101, 건물 전체 (충무로 1가)",1522-3232,37.560832,126.983095
481,명동입구,서울특별시 중구 남대문로 68-1 (명동2가),1522-3232,37.563319,126.982242
482,무교로,서울특별시 중구 무교로 15 (무교동),1522-3232,37.567399,126.978900
483,숭례문SG타워,서울특별시 중구 세종대로 14 (남대문로5가),1522-3232,37.5581293,126.9742637
484,레스케이프호텔,서울특별시 중구 퇴계로 67 (회현동1가),1522-3232,37.5598346,126.9794946
485,별다방,서울특별시 중구 퇴계로 100 (회현동2가),1522-3232,37.5602013,126.9829327
486,포포인츠명동,서울특별시 중구 삼일대로10길 36 (저동2가),1522-3232,37.5657211,126.9893426
487,명동남산,서울특별시 중구 퇴계로 132 (남산동3가),1522-3232,37.560809,126.986397
488,명일역,서울특별시 강동구 양재대로 1647 (명일동),1522-3232,37.552580,127.143799
489,강동구청DT,서울특별시 강동구 성내로 32 (성내동),1522-3232,37.529437,127.123835
490,강동암사DT,서울특별시 강동구 고덕로 43 (암사동),1522-3232,37.555054,127.130065
491,굽은다리역,"서울특별시 강동구 양재대로 1568 (명일동, 원일타워)",1522-3232,37.545403,127.143101
492,강동역,"서울특별시 강동구 천호대로 1089 (천호동, 강동 헤르셔)",1522-3232,37.536047,127.133086
493,둔촌동,서울특별시 강동구 양재대로 1303 (성내동) 평원빌딩,1522-3232,37.522724,127.133943
494,천호로데오,서울특별시 강동구 천호대로 1037 (천호동),1522-3232,37.5378069,127.12730940000006
495,천호이마트,서울특별시 강동구 천호대로 1015-14 (천호동) 이마트별관,1522-3232,37.538933,127.125214
496,길동역,서울특별시 강동구 양재대로 1487 (길동),1522-3232,37.5387433,127.1399879
497,상일동,"서울특별시 강동구 상일로10길 36, 1~2층 (상일동)",1522-3232,37.5507989598659,127.174104292142
498,천호역,"서울특별시 강동구 천호대로 1012, 태승빌딩 (성내동)",1522-3232,37.53795191,127.1245793
499,명일이마트,서울특별시 강동구 동남로75길 5 (명일동) 명일이마트별관주차장,1522-3232,37.553991,127.155984
500,상일동역,"서울특별시 강동구 고덕로 399 (고덕동, 고덕센트럴푸르지오)",1522-3232,37.55754181615496,127.17072672474717
501,천호사거리,서울특별시 강동구 올림픽로 651 ,1522-3232,37.539702,127.123542
502,올림픽공원북2문,서울특별시 강동구 강동대로 199 (성내동),1522-3232,37.5241832,127.1286775
503,천호대로길동,서울특별시 강동구 천호대로 1131 거산 유팰리스,1522-3232,37.534651,127.137210
504,신도림,서울특별시 구로구 경인로 610 (신도림동),1522-3232,37.505517,126.883953
505,구로디지털타워,서울특별시 구로구 디지털로32길 30 (구로동),1522-3232,37.483432,126.896480
506,오류동역,서울특별시 구로구 경인로 216 (오류동),1522-3232,37.4962155,126.8448614
507,구로디지털로,"서울특별시 구로구 디지털로33길 11, 에이스테크노8차 1층 (구로동)",1522-3232,37.485911,126.895587
508,드림마크원,"서울특별시 구로구 디지털로31길 61, 드림마크원데이터센타 1층 (구로동)",1522-3232,37.48587904,126.8916127
509,구로에이스,"서울특별시 구로구 디지털로 285, 에이스트윈타워1차 103호 (구로동)",1522-3232,37.48448329,126.8944957
510,구로하이엔드,"서울특별시 구로구 디지털로26길 5, 에이스하이엔드타워1차 103호 (구로동)",1522-3232,37.481618,126.893136
511,현대디큐브2F,서울특별시 구로구 경인로 662 (신도림동),1522-3232,37.508636,126.889225
512,구로호텔,"서울특별시 구로구 디지털로32길 72, 구로호텔 1층 (구로동)",1522-3232,37.4831293,126.89885909999998
513,현대디큐브B2,서울특별시 구로구 경인로 662 (신도림동),1522-3232,37.508828,126.889488
514,구로고척,서울특별시 구로구 경인로 387 (고척동),1522-3232,37.49706,126.86315
515,구로NC,서울특별시 구로구 구로중앙로 152 (구로동) 구로NC,1522-3232,37.501219,126.882798
516,답십리역,서울특별시 동대문구 천호대로 263 (답십리동),1522-3232,37.568466,127.051106
517,경희대삼거리,서울특별시 동대문구 회기로 141 (회기동),1522-3232,37.591531,127.052017
518,외대정문,서울특별시 동대문구 이문로 93 (이문동),1522-3232,37.5953464,127.0590302
519,신설동역,서울특별시 동대문구 왕산로 19 (신설동),1522-3232,37.5767228,127.0255446
520,회기역사거리,서울특별시 동대문구 이문로 37 (회기동),1522-3232,37.590784,127.056098
521,외대,서울특별시 동대문구 휘경로 12-1 (이문동),1522-3232,37.59575188,127.0614002
522,장한평역,서울특별시 동대문구 장한로 10 (장안동),1522-3232,37.562337,127.065511
523,경희대,서울특별시 동대문구 경희대로 16-1 (회기동),1522-3232,37.5928812,127.05280849999997
524,청량리역사,서울특별시 동대문구 왕산로 214 (전농동),1522-3232,37.57945,127.04785
525,서울숲역,서울특별시 성동구 왕십리로50 1층 일부,1522-3232,37.542075,127.044961
526,금호역,서울특별시 성동구 동호로 99 ,1522-3232,37.5479939,127.0153343
527,뚝섬역,서울특별시 성동구 아차산로 42 (성수동1가),1522-3232,37.546432,127.049042
528,황학사거리,"서울특별시 성동구 왕십리로 410 (하왕십리동, 센트라스)",1522-3232,37.567644,127.023697
529,성수역,서울특별시 성동구 성수이로 94 (성수동2가),1522-3232,37.543193,127.056943
530,상왕십리역,서울특별시 성동구 왕십리로 382 (하왕십리동),1522-3232,37.565169,127.027907
531,왕십리역,서울특별시 성동구 왕십리로 326 (도선동),1522-3232,37.5627541,127.0339072
532,한양대,"서울특별시 성동구 왕십리로 225 (행당동) 1,2층",1522-3232,37.55726984,127.0421649
533,엔터식스,서울특별시 성동구 왕십리광장로 17 (행당동),1522-3232,37.56175811,127.0383328
534,성수이마트,서울특별시 성동구 뚝섬로 379 (성수동2가) 이마트 성수점,1522-3232,37.5396996,127.0530083
535,옥수,서울특별시 성동구 독서당로 202 (옥수동),1522-3232,37.5430298,127.0133661
536,성수낙낙,서울시 성동구 광나루로8길 31 성수SKV1 2동 1층 101~107호,1522-3232,37.547326,127.066367
537,효창공원앞역,"서울특별시 용산구 백범로 313 (효창동, 용산 롯데캐슬 센터포레)",1522-3232,37.539305,126.963060
538,서울역서부,서울특별시 용산구 만리재로 202 (서계동),1522-3232,37.555165,126.968446
539,이태원역,서울특별시 용산구 이태원로 188 (이태원동),1522-3232,37.534273,126.994789
540,한강진역R,서울특별시 용산구 이태원로 252 (한남동),1522-3232,37.537131,127.000980
541,용산역써밋R,"서울특별시 용산구 한강대로 69 (한강로2가, 용산푸르지오써밋)",1522-3232,37.527586,126.965401
542,이촌,서울특별시 용산구 이촌로 276 (이촌동),1522-3232,37.518605,126.977271
543,신용산역,"서울특별시 용산구 한강대로 95 (한강로2가, 래미안용산)",1522-3232,37.528702,126.966757
544,용산파크타워,"서울특별시 용산구 서빙고로 67 (용산동5가, 파크타워)",1522-3232,37.523818,126.970389
545,남영동,서울특별시 용산구 한강대로 275 (갈월동),1522-3232,37.542831,126.972242
546,한남동R,서울특별시 용산구 독서당로 94 (한남동),1522-3232,37.53485,127.010919
547,서울타워,서울특별시 용산구 남산공원길 105 (용산동2가) YTN서울타워 1층,1522-3232,37.551102,126.988317
548,서울역동자동,서울특별시 용산구 한강대로 372 (동자동),1522-3232,37.551752,126.972694
549,순천향입구,서울특별시 용산구 대사관로 67 (한남동),1522-3232,37.533394,127.00563
550,숙대,서울특별시 용산구 청파로47길 57 (청파동3가),1522-3232,37.54460479,126.9672252
551,동빙고,서울특별시 용산구 장문로 12 (동빙고동),1522-3232,37.5289857,126.991782
552,숙대입구역,서울특별시 용산구 한강대로 291 (갈월동),1522-3232,37.544118,126.971891
553,용산아이파크몰,서울특별시 용산구 한강대로23길 55,1522-3232,37.5288539,126.96404469999993
554,동부이촌동,서울특별시 용산구 이촌로 198 (이촌동),1522-3232,37.52111,126.96905
555,용산해링턴스퀘어,서울특별시 용산구 서빙고로 17 (한강로3가),1522-3232,37.5258562,126.9676442
556,서울역사,서울특별시 용산구 한강대로 405 (동자동) 신-101호,1522-3232,37.55415699928705,126.97179361292846
557,용산리첸시아,"서울특별시 용산구 백범로 341 (원효로1가, 리첸시아 용산)",1522-3232,37.538571,126.967409
558,상봉,"서울특별시 중랑구 상봉로 131 (상봉동, 상봉 듀오트리스 주상복합)",1522-3232,37.597842,127.092509
559,중랑역,서울특별시 중랑구 망우로30길 3 (상봉동),1522-3232,37.5930326,127.07473579999998
560,중랑구청,서울특별시 중랑구 신내로 72,1522-3232,37.60538908,127.0957558
561,사가정역,서울특별시 중랑구 면목로 310,1522-3232,37.579594,127.087966
562,상봉역,서울특별시 중랑구 망우로 307 (상봉동),1522-3232,37.59689,127.08647
563,묵동이마트,"서울특별시 중랑구 동일로 932 (묵동, 묵동자이아파트) (묵동이마트 B1층)",1522-3232,37.613433,127.077484
564,묵동,서울특별시 중랑구 동일로 952 ,1522-3232,37.615368,127.076633
565,중화역,"서울특별시 중랑구 봉화산로 35 1,2층",1522-3232,37.60170912407773,127.07841136432036
